[
    {
        "geometry": {
            "type": "Point",
            "coordinates": [
                131.6,
                34.5
            ]
        },
        "type": "Feature",
        "properties": {
            "Country": "Honshu-Japan",
            "Altitude": 641,
            "Type": "Shield volcanoes",
            "Name": "Abu"
        }
    },
    {
        "geometry": {
            "type": "Point",
            "coordinates": [
                -67.62,
                -23.3
            ]
        },
        "type": "Feature",
        "properties": {
            "Country": "Chile-N",
            "Altitude": 6046,
            "Type": "Stratovolcano",
            "Name": "Acamarachi"
        }
    },
    {
        "geometry": {
            "type": "Point",
            "coordinates": [
                -90.88,
                14.5
            ]
        },
        "type": "Feature",
        "properties": {
            "Country": "Guatemala",
            "Altitude": 3976,
            "Type": "Stratovolcano",
            "Name": "Acatenango"
        }
    },
    {
        "geometry": {
            "type": "Point",
            "coordinates": [
                34.52,
                38.57
            ]
        },
        "type": "Feature",
        "properties": {
            "Country": "Turkey",
            "Altitude": 1689,
            "Type": "Caldera",
            "Name": "Acigol-Nevsehir"
        }
    },
    {
        "geometry": {
            "type": "Point",
            "coordinates": [
                -121.49,
                46.21
            ]
        },
        "type": "Feature",
        "properties": {
            "Country": "US-Washington",
            "Altitude": 3742,
            "Type": "Stratovolcano",
            "Name": "Adams"
        }
    },
    {
        "geometry": {
            "type": "Point",
            "coordinates": [
                -129.27,
                -25.37
            ]
        },
        "type": "Feature",
        "properties": {
            "Country": "Pacific-C",
            "Altitude": -39.0,
            "Type": "Submarine volcano",
            "Name": "Adams Seamount"
        }
    },
    {
        "geometry": {
            "type": "Point",
            "coordinates": [
                140.29,
                37.64
            ]
        },
        "type": "Feature",
        "properties": {
            "Country": "Honshu-Japan",
            "Altitude": 1718,
            "Type": "Stratovolcanoes",
            "Name": "Adatara"
        }
    },
    {
        "geometry": {
            "type": "Point",
            "coordinates": [
                40.84,
                10.07
            ]
        },
        "type": "Feature",
        "properties": {
            "Country": "Ethiopia",
            "Altitude": 1733,
            "Type": "Stratovolcano",
            "Name": "Adwa"
        }
    },
    {
        "geometry": {
            "type": "Point",
            "coordinates": [
                40.85,
                13.08
            ]
        },
        "type": "Feature",
        "properties": {
            "Country": "Ethiopia",
            "Altitude": 1295,
            "Type": "Stratovolcano",
            "Name": "Afder"
        }
    },
    {
        "geometry": {
            "type": "Point",
            "coordinates": [
                145.67,
                18.77
            ]
        },
        "type": "Feature",
        "properties": {
            "Country": "Mariana Is-C Pacific",
            "Altitude": 965,
            "Type": "Stratovolcano",
            "Name": "Agrigan"
        }
    },
    {
        "geometry": {
            "type": "Point",
            "coordinates": [
                -90.74,
                14.47
            ]
        },
        "type": "Feature",
        "properties": {
            "Country": "Guatemala",
            "Altitude": 3760,
            "Type": "Stratovolcano",
            "Name": "Agua"
        }
    },
    {
        "geometry": {
            "type": "Point",
            "coordinates": [
                -25.47,
                37.77
            ]
        },
        "type": "Feature",
        "properties": {
            "Country": "Azores",
            "Altitude": 947,
            "Type": "Stratovolcano",
            "Name": "Agua de Pau"
        }
    },
    {
        "geometry": {
            "type": "Point",
            "coordinates": [
                -73.75,
                -50.33
            ]
        },
        "type": "Feature",
        "properties": {
            "Country": "Chile-S",
            "Altitude": 2546,
            "Type": "Stratovolcano",
            "Name": "Aguilera"
        }
    },
    {
        "geometry": {
            "type": "Point",
            "coordinates": [
                115.51,
                -8.34
            ]
        },
        "type": "Feature",
        "properties": {
            "Country": "Lesser Sunda Is",
            "Altitude": 3142,
            "Type": "Stratovolcano",
            "Name": "Agung"
        }
    },
    {
        "geometry": {
            "type": "Point",
            "coordinates": [
                145.03,
                20.42
            ]
        },
        "type": "Feature",
        "properties": {
            "Country": "Mariana Is-C Pacific",
            "Altitude": -137.0,
            "Type": "Submarine volcano",
            "Name": "Ahyi"
        }
    },
    {
        "geometry": {
            "type": "Point",
            "coordinates": [
                159.45,
                53.98
            ]
        },
        "type": "Feature",
        "properties": {
            "Country": "Kamchatka",
            "Altitude": 1180,
            "Type": "Stratovolcanoes",
            "Name": "Akademia Nauk"
        }
    },
    {
        "geometry": {
            "type": "Point",
            "coordinates": [
                139.2,
                36.56
            ]
        },
        "type": "Feature",
        "properties": {
            "Country": "Honshu-Japan",
            "Altitude": 1828,
            "Type": "Stratovolcano",
            "Name": "Akagi"
        }
    },
    {
        "geometry": {
            "type": "Point",
            "coordinates": [
                144.01,
                43.38
            ]
        },
        "type": "Feature",
        "properties": {
            "Country": "Hokkaido-Japan",
            "Altitude": 1499,
            "Type": "Caldera",
            "Name": "Akan"
        }
    },
    {
        "geometry": {
            "type": "Point",
            "coordinates": [
                158.65,
                55.43
            ]
        },
        "type": "Feature",
        "properties": {
            "Country": "Kamchatka",
            "Altitude": 1956,
            "Type": "Shield volcano",
            "Name": "Akhtang"
        }
    },
    {
        "geometry": {
            "type": "Point",
            "coordinates": [
                140.8,
                39.76
            ]
        },
        "type": "Feature",
        "properties": {
            "Country": "Honshu-Japan",
            "Altitude": 1637,
            "Type": "Stratovolcanoes",
            "Name": "Akita-Komaga-take"
        }
    },
    {
        "geometry": {
            "type": "Point",
            "coordinates": [
                140.76,
                39.96
            ]
        },
        "type": "Feature",
        "properties": {
            "Country": "Honshu-Japan",
            "Altitude": 1366,
            "Type": "Stratovolcano",
            "Name": "Akita-Yake-yama"
        }
    },
    {
        "geometry": {
            "type": "Point",
            "coordinates": [
                129.6,
                29.46
            ]
        },
        "type": "Feature",
        "properties": {
            "Country": "Ryukyu Is",
            "Altitude": 584,
            "Type": "Stratovolcanoes",
            "Name": "Akuseki-jima"
        }
    },
    {
        "geometry": {
            "type": "Point",
            "coordinates": [
                -165.99,
                54.13
            ]
        },
        "type": "Feature",
        "properties": {
            "Country": "Aleutian Is",
            "Altitude": 1303,
            "Type": "Stratovolcano",
            "Name": "Akutan"
        }
    },
    {
        "geometry": {
            "type": "Point",
            "coordinates": [
                155.55,
                50.86
            ]
        },
        "type": "Feature",
        "properties": {
            "Country": "Kuril Is",
            "Altitude": 2339,
            "Type": "Stratovolcano",
            "Name": "Alaid"
        }
    },
    {
        "geometry": {
            "type": "Point",
            "coordinates": [
                145.83,
                17.6
            ]
        },
        "type": "Feature",
        "properties": {
            "Country": "Mariana Is-C Pacific",
            "Altitude": 744,
            "Type": "Stratovolcano",
            "Name": "Alamagan"
        }
    },
    {
        "geometry": {
            "type": "Point",
            "coordinates": [
                40.57,
                12.88
            ]
        },
        "type": "Feature",
        "properties": {
            "Country": "Ethiopia",
            "Altitude": 1501,
            "Type": "Shield volcano",
            "Name": "Alayta"
        }
    },
    {
        "geometry": {
            "type": "Point",
            "coordinates": [
                12.7,
                41.73
            ]
        },
        "type": "Feature",
        "properties": {
            "Country": "Italy",
            "Altitude": 949,
            "Type": "Caldera",
            "Name": "Alban Hills"
        }
    },
    {
        "geometry": {
            "type": "Point",
            "coordinates": [
                -91.12,
                -0.43
            ]
        },
        "type": "Feature",
        "properties": {
            "Country": "Galapagos",
            "Altitude": 1130,
            "Type": "Shield volcano",
            "Name": "Alcedo"
        }
    },
    {
        "geometry": {
            "type": "Point",
            "coordinates": [
                40.63,
                13.52
            ]
        },
        "type": "Feature",
        "properties": {
            "Country": "Ethiopia",
            "Altitude": 1031,
            "Type": "Stratovolcano",
            "Name": "Ale Bagu"
        }
    },
    {
        "geometry": {
            "type": "Point",
            "coordinates": [
                39.92,
                14.88
            ]
        },
        "type": "Feature",
        "properties": {
            "Country": "Ethiopia",
            "Altitude": 904,
            "Type": "Stratovolcano",
            "Name": "Alid"
        }
    },
    {
        "geometry": {
            "type": "Point",
            "coordinates": [
                -135.42,
                60.42
            ]
        },
        "type": "Feature",
        "properties": {
            "Country": "Canada",
            "Altitude": 2217,
            "Type": "Volcanic field",
            "Name": "Alligator Lake"
        }
    },
    {
        "geometry": {
            "type": "Point",
            "coordinates": [
                -91.48,
                14.82
            ]
        },
        "type": "Feature",
        "properties": {
            "Country": "Guatemala",
            "Altitude": 3197,
            "Type": "Stratovolcano",
            "Name": "Almolonga"
        }
    },
    {
        "geometry": {
            "type": "Point",
            "coordinates": [
                159.65,
                56.7
            ]
        },
        "type": "Feature",
        "properties": {
            "Country": "Kamchatka",
            "Altitude": 2598,
            "Type": "Stratovolcano",
            "Name": "Alney-Chashakondzha"
        }
    },
    {
        "geometry": {
            "type": "Point",
            "coordinates": [
                160.4,
                57.7
            ]
        },
        "type": "Feature",
        "properties": {
            "Country": "Kamchatka",
            "Altitude": 1853,
            "Type": "Stratovolcano",
            "Name": "Alngey"
        }
    },
    {
        "geometry": {
            "type": "Point",
            "coordinates": [
                40.55,
                13.82
            ]
        },
        "type": "Feature",
        "properties": {
            "Country": "Ethiopia",
            "Altitude": 429,
            "Type": "Fissure vents",
            "Name": "Alu"
        }
    },
    {
        "geometry": {
            "type": "Point",
            "coordinates": [
                38.78,
                7.77
            ]
        },
        "type": "Feature",
        "properties": {
            "Country": "Ethiopia",
            "Altitude": 2335,
            "Type": "Stratovolcano",
            "Name": "Alutu"
        }
    },
    {
        "geometry": {
            "type": "Point",
            "coordinates": [
                -163.15,
                55.42
            ]
        },
        "type": "Feature",
        "properties": {
            "Country": "Aleutian Is",
            "Altitude": 488,
            "Type": "Stratovolcano",
            "Name": "Amak"
        }
    },
    {
        "geometry": {
            "type": "Point",
            "coordinates": [
                127.48,
                -0.53
            ]
        },
        "type": "Feature",
        "properties": {
            "Country": "Halmahera-Indonesia",
            "Altitude": 1030,
            "Type": "Stratovolcanoes",
            "Name": "Amasing"
        }
    },
    {
        "geometry": {
            "type": "Point",
            "coordinates": [
                121.1,
                17.32
            ]
        },
        "type": "Feature",
        "properties": {
            "Country": "Luzon-Philippines",
            "Altitude": 2329,
            "Type": "Compound volcano",
            "Name": "Ambalatungan Group"
        }
    },
    {
        "geometry": {
            "type": "Point",
            "coordinates": [
                124.42,
                0.75
            ]
        },
        "type": "Feature",
        "properties": {
            "Country": "Sulawesi-Indonesia",
            "Altitude": 1795,
            "Type": "Complex volcano",
            "Name": "Ambang"
        }
    },
    {
        "geometry": {
            "type": "Point",
            "coordinates": [
                153.65,
                -4.08
            ]
        },
        "type": "Feature",
        "properties": {
            "Country": "New Ireland-SW Pacific",
            "Altitude": 450,
            "Type": "Stratovolcano",
            "Name": "Ambitle"
        }
    },
    {
        "geometry": {
            "type": "Point",
            "coordinates": [
                49.15,
                -12.6
            ]
        },
        "type": "Feature",
        "properties": {
            "Country": "Madagascar",
            "Altitude": 1475,
            "Type": "Volcanic field",
            "Name": "Ambre-Bobaomby"
        }
    },
    {
        "geometry": {
            "type": "Point",
            "coordinates": [
                168.12,
                -16.25
            ]
        },
        "type": "Feature",
        "properties": {
            "Country": "Vanuatu-SW Pacific",
            "Altitude": 1334,
            "Type": "Pyroclastic shield",
            "Name": "Ambrym"
        }
    },
    {
        "geometry": {
            "type": "Point",
            "coordinates": [
                120.81,
                15.83
            ]
        },
        "type": "Feature",
        "properties": {
            "Country": "Luzon-Philippines",
            "Altitude": 376,
            "Type": "Lava domes",
            "Name": "Amorong"
        }
    },
    {
        "geometry": {
            "type": "Point",
            "coordinates": [
                77.52,
                -37.83
            ]
        },
        "type": "Feature",
        "properties": {
            "Country": "Indian O.-S",
            "Altitude": 881,
            "Type": "Stratovolcano",
            "Name": "Amsterdam Island"
        }
    },
    {
        "geometry": {
            "type": "Point",
            "coordinates": [
                -171.25,
                52.5
            ]
        },
        "type": "Feature",
        "properties": {
            "Country": "Aleutian Is",
            "Altitude": 1066,
            "Type": "Stratovolcano",
            "Name": "Amukta"
        }
    },
    {
        "geometry": {
            "type": "Point",
            "coordinates": [
                145.67,
                16.35
            ]
        },
        "type": "Feature",
        "properties": {
            "Country": "Mariana Is-C Pacific",
            "Altitude": 790,
            "Type": "Stratovolcano",
            "Name": "Anatahan"
        }
    },
    {
        "geometry": {
            "type": "Point",
            "coordinates": [
                158.83,
                56.32
            ]
        },
        "type": "Feature",
        "properties": {
            "Country": "Kamchatka",
            "Altitude": 1828,
            "Type": "Stratovolcano",
            "Name": "Anaun"
        }
    },
    {
        "geometry": {
            "type": "Point",
            "coordinates": [
                -72.33,
                -15.42
            ]
        },
        "type": "Feature",
        "properties": {
            "Country": "Peru",
            "Altitude": 4713,
            "Type": "Cinder cones",
            "Name": "Andahua-Orcopampa"
        }
    },
    {
        "geometry": {
            "type": "Point",
            "coordinates": [
                -132.33,
                -75.8
            ]
        },
        "type": "Feature",
        "properties": {
            "Country": "Antarctica",
            "Altitude": 2978,
            "Type": "Shield volcanoes",
            "Name": "Andrus"
        }
    },
    {
        "geometry": {
            "type": "Point",
            "coordinates": [
                169.78,
                -20.2
            ]
        },
        "type": "Feature",
        "properties": {
            "Country": "Vanuatu-SW Pacific",
            "Altitude": 852,
            "Type": "Stratovolcanoes",
            "Name": "Aneityum"
        }
    },
    {
        "geometry": {
            "type": "Point",
            "coordinates": [
                -158.17,
                56.88
            ]
        },
        "type": "Feature",
        "properties": {
            "Country": "Alaska Peninsula",
            "Altitude": 1341,
            "Type": "Caldera",
            "Name": "Aniakchak"
        }
    },
    {
        "geometry": {
            "type": "Point",
            "coordinates": [
                48.67,
                -14.3
            ]
        },
        "type": "Feature",
        "properties": {
            "Country": "Madagascar",
            "Altitude": 2878,
            "Type": "Cinder cones",
            "Name": "Ankaizina Field"
        }
    },
    {
        "geometry": {
            "type": "Point",
            "coordinates": [
                47.2,
                -19.4
            ]
        },
        "type": "Feature",
        "properties": {
            "Country": "Madagascar",
            "Altitude": 2644,
            "Type": "Cinder cones",
            "Name": "Ankaratra Field"
        }
    },
    {
        "geometry": {
            "type": "Point",
            "coordinates": [
                -72.15,
                -40.77
            ]
        },
        "type": "Feature",
        "properties": {
            "Country": "Chile-C",
            "Altitude": 1990,
            "Type": "Stratovolcanoes",
            "Name": "Antillanca Group"
        }
    },
    {
        "geometry": {
            "type": "Point",
            "coordinates": [
                178.77,
                -49.68
            ]
        },
        "type": "Feature",
        "properties": {
            "Country": "Pacific-S",
            "Altitude": 402,
            "Type": "Pyroclastic cones",
            "Name": "Antipodes Island"
        }
    },
    {
        "geometry": {
            "type": "Point",
            "coordinates": [
                -78.14,
                -0.48
            ]
        },
        "type": "Feature",
        "properties": {
            "Country": "Ecuador",
            "Altitude": 5753,
            "Type": "Stratovolcano",
            "Name": "Antisana"
        }
    },
    {
        "geometry": {
            "type": "Point",
            "coordinates": [
                -67.5,
                -26.08
            ]
        },
        "type": "Feature",
        "properties": {
            "Country": "Argentina",
            "Altitude": 4000,
            "Type": "Scoria cones",
            "Name": "Antofagasta de la Sierra"
        }
    },
    {
        "geometry": {
            "type": "Point",
            "coordinates": [
                -71.35,
                -37.41
            ]
        },
        "type": "Feature",
        "properties": {
            "Country": "Chile-C",
            "Altitude": 2979,
            "Type": "Stratovolcano",
            "Name": "Antuco"
        }
    },
    {
        "geometry": {
            "type": "Point",
            "coordinates": [
                167.83,
                -15.4
            ]
        },
        "type": "Feature",
        "properties": {
            "Country": "Vanuatu-SW Pacific",
            "Altitude": 1496,
            "Type": "Shield volcano",
            "Name": "Aoba"
        }
    },
    {
        "geometry": {
            "type": "Point",
            "coordinates": [
                139.76,
                32.45
            ]
        },
        "type": "Feature",
        "properties": {
            "Country": "Izu Is-Japan",
            "Altitude": 423,
            "Type": "Stratovolcano",
            "Name": "Aoga-shima"
        }
    },
    {
        "geometry": {
            "type": "Point",
            "coordinates": [
                -72.58,
                -41.88
            ]
        },
        "type": "Feature",
        "properties": {
            "Country": "Chile-S",
            "Altitude": 1210,
            "Type": "Pyroclastic cone",
            "Name": "Apagado"
        }
    },
    {
        "geometry": {
            "type": "Point",
            "coordinates": [
                -89.79,
                13.89
            ]
        },
        "type": "Feature",
        "properties": {
            "Country": "El Salvador",
            "Altitude": 2036,
            "Type": "Stratovolcanoes",
            "Name": "Apaneca Range"
        }
    },
    {
        "geometry": {
            "type": "Point",
            "coordinates": [
                -88.77,
                13.72
            ]
        },
        "type": "Feature",
        "properties": {
            "Country": "El Salvador",
            "Altitude": 700,
            "Type": "Volcanic field",
            "Name": "Apastepeque Field"
        }
    },
    {
        "geometry": {
            "type": "Point",
            "coordinates": [
                125.27,
                6.99
            ]
        },
        "type": "Feature",
        "properties": {
            "Country": "Mindanao-Philippines",
            "Altitude": 2938,
            "Type": "Stratovolcano",
            "Name": "Apo"
        }
    },
    {
        "geometry": {
            "type": "Point",
            "coordinates": [
                -86.34,
                12.24
            ]
        },
        "type": "Feature",
        "properties": {
            "Country": "Nicaragua",
            "Altitude": 518,
            "Type": "Pyroclastic shield",
            "Name": "Apoyeque"
        }
    },
    {
        "geometry": {
            "type": "Point",
            "coordinates": [
                -67.77,
                -24.25
            ]
        },
        "type": "Feature",
        "properties": {
            "Country": "Argentina",
            "Altitude": 6082,
            "Type": "Stratovolcano",
            "Name": "Aracar"
        }
    },
    {
        "geometry": {
            "type": "Point",
            "coordinates": [
                44.2,
                40.53
            ]
        },
        "type": "Feature",
        "properties": {
            "Country": "Armenia",
            "Altitude": 4095,
            "Type": "Stratovolcano",
            "Name": "Aragats"
        }
    },
    {
        "geometry": {
            "type": "Point",
            "coordinates": [
                -88.11,
                13.43
            ]
        },
        "type": "Feature",
        "properties": {
            "Country": "El Salvador",
            "Altitude": 181,
            "Type": "Maar",
            "Name": "Aramuaca: Laguna"
        }
    },
    {
        "geometry": {
            "type": "Point",
            "coordinates": [
                44.3,
                39.7
            ]
        },
        "type": "Feature",
        "properties": {
            "Country": "Turkey",
            "Altitude": 5165,
            "Type": "Stratovolcano",
            "Name": "Ararat"
        }
    },
    {
        "geometry": {
            "type": "Point",
            "coordinates": [
                120.74,
                15.2
            ]
        },
        "type": "Feature",
        "properties": {
            "Country": "Luzon-Philippines",
            "Altitude": 1026,
            "Type": "Stratovolcano",
            "Name": "Arayat"
        }
    },
    {
        "geometry": {
            "type": "Point",
            "coordinates": [
                42.47,
                11.58
            ]
        },
        "type": "Feature",
        "properties": {
            "Country": "Djibouti",
            "Altitude": 298,
            "Type": "Fissure vents",
            "Name": "Ardoukoba"
        }
    },
    {
        "geometry": {
            "type": "Point",
            "coordinates": [
                -84.7,
                10.46
            ]
        },
        "type": "Feature",
        "properties": {
            "Country": "Costa Rica",
            "Altitude": 1670,
            "Type": "Stratovolcano",
            "Name": "Arenal"
        }
    },
    {
        "geometry": {
            "type": "Point",
            "coordinates": [
                -73.48,
                -47.2
            ]
        },
        "type": "Feature",
        "properties": {
            "Country": "Chile-S",
            "Altitude": 3437,
            "Type": "Stratovolcano",
            "Name": "Arenales"
        }
    },
    {
        "geometry": {
            "type": "Point",
            "coordinates": [
                44.08,
                15.63
            ]
        },
        "type": "Feature",
        "properties": {
            "Country": "Arabia-S",
            "Altitude": 3100,
            "Type": "Volcanic field",
            "Name": "Arhab: Harra of"
        }
    },
    {
        "geometry": {
            "type": "Point",
            "coordinates": [
                112.58,
                -7.73
            ]
        },
        "type": "Feature",
        "properties": {
            "Country": "Java",
            "Altitude": 3339,
            "Type": "Stratovolcano",
            "Name": "Arjuno-Welirang"
        }
    },
    {
        "geometry": {
            "type": "Point",
            "coordinates": [
                157.83,
                52.36
            ]
        },
        "type": "Feature",
        "properties": {
            "Country": "Kamchatka",
            "Altitude": 1910,
            "Type": "Complex volcano",
            "Name": "Asacha"
        }
    },
    {
        "geometry": {
            "type": "Point",
            "coordinates": [
                138.53,
                36.4
            ]
        },
        "type": "Feature",
        "properties": {
            "Country": "Honshu-Japan",
            "Altitude": 2568,
            "Type": "Complex volcano",
            "Name": "Asama"
        }
    },
    {
        "geometry": {
            "type": "Point",
            "coordinates": [
                41.6,
                13.07
            ]
        },
        "type": "Feature",
        "properties": {
            "Country": "Ethiopia",
            "Altitude": 1200,
            "Type": "Shield volcano",
            "Name": "Asavyo"
        }
    },
    {
        "geometry": {
            "type": "Point",
            "coordinates": [
                -14.37,
                -7.95
            ]
        },
        "type": "Feature",
        "properties": {
            "Country": "Atlantic-C",
            "Altitude": 858,
            "Type": "Stratovolcano",
            "Name": "Ascension"
        }
    },
    {
        "geometry": {
            "type": "Point",
            "coordinates": [
                -16.75,
                65.03
            ]
        },
        "type": "Feature",
        "properties": {
            "Country": "Iceland-NE",
            "Altitude": 1516,
            "Type": "Stratovolcano",
            "Name": "Askja"
        }
    },
    {
        "geometry": {
            "type": "Point",
            "coordinates": [
                131.11,
                32.88
            ]
        },
        "type": "Feature",
        "properties": {
            "Country": "Kyushu-Japan",
            "Altitude": 1592,
            "Type": "Caldera",
            "Name": "Aso"
        }
    },
    {
        "geometry": {
            "type": "Point",
            "coordinates": [
                42.43,
                12.95
            ]
        },
        "type": "Feature",
        "properties": {
            "Country": "Ethiopia",
            "Altitude": 987,
            "Type": "Volcanic field",
            "Name": "Assab Volc Field"
        }
    },
    {
        "geometry": {
            "type": "Point",
            "coordinates": [
                145.41,
                19.67
            ]
        },
        "type": "Feature",
        "properties": {
            "Country": "Mariana Is-C Pacific",
            "Altitude": 857,
            "Type": "Stratovolcano",
            "Name": "Asuncion"
        }
    },
    {
        "geometry": {
            "type": "Point",
            "coordinates": [
                -78.62,
                -0.35
            ]
        },
        "type": "Feature",
        "properties": {
            "Country": "Ecuador",
            "Altitude": 4463,
            "Type": "Stratovolcano",
            "Name": "Atacazo"
        }
    },
    {
        "geometry": {
            "type": "Point",
            "coordinates": [
                5.83,
                23.33
            ]
        },
        "type": "Feature",
        "properties": {
            "Country": "Africa-N",
            "Altitude": 2918,
            "Type": "Scoria cones",
            "Name": "Atakor Volc Field"
        }
    },
    {
        "geometry": {
            "type": "Point",
            "coordinates": [
                -91.19,
                14.58
            ]
        },
        "type": "Feature",
        "properties": {
            "Country": "Guatemala",
            "Altitude": 3535,
            "Type": "Stratovolcano",
            "Name": "Atitlon"
        }
    },
    {
        "geometry": {
            "type": "Point",
            "coordinates": [
                -174.15,
                52.38
            ]
        },
        "type": "Feature",
        "properties": {
            "Country": "Aleutian Is",
            "Altitude": 1533,
            "Type": "Stratovolcanoes",
            "Name": "Atka"
        }
    },
    {
        "geometry": {
            "type": "Point",
            "coordinates": [
                -133.32,
                59.68
            ]
        },
        "type": "Feature",
        "properties": {
            "Country": "Canada",
            "Altitude": 1880,
            "Type": "Cinder cones",
            "Name": "Atlin Volc Field"
        }
    },
    {
        "geometry": {
            "type": "Point",
            "coordinates": [
                -96.53,
                19.81
            ]
        },
        "type": "Feature",
        "properties": {
            "Country": "Mexico",
            "Altitude": 800,
            "Type": "Shield volcano",
            "Name": "Atlixcos: Los"
        }
    },
    {
        "geometry": {
            "type": "Point",
            "coordinates": [
                147.14,
                44.81
            ]
        },
        "type": "Feature",
        "properties": {
            "Country": "Kuril Is",
            "Altitude": 1206,
            "Type": "Stratovolcano",
            "Name": "Atsonupuri"
        }
    },
    {
        "geometry": {
            "type": "Point",
            "coordinates": [
                -70.05,
                -34.65
            ]
        },
        "type": "Feature",
        "properties": {
            "Country": "Argentina",
            "Altitude": 5189,
            "Type": "Caldera",
            "Name": "Atuel: Caldera del"
        }
    },
    {
        "geometry": {
            "type": "Point",
            "coordinates": [
                174.87,
                -36.9
            ]
        },
        "type": "Feature",
        "properties": {
            "Country": "New Zealand",
            "Altitude": 260,
            "Type": "Volcanic field",
            "Name": "Auckland Field"
        }
    },
    {
        "geometry": {
            "type": "Point",
            "coordinates": [
                -153.43,
                59.36
            ]
        },
        "type": "Feature",
        "properties": {
            "Country": "Alaska-SW",
            "Altitude": 1252,
            "Type": "Lava domes",
            "Name": "Augustine"
        }
    },
    {
        "geometry": {
            "type": "Point",
            "coordinates": [
                -73.18,
                -15.07
            ]
        },
        "type": "Feature",
        "properties": {
            "Country": "Peru",
            "Altitude": 4980,
            "Type": "Cinder cone",
            "Name": "Auquihuato: Cerro"
        }
    },
    {
        "geometry": {
            "type": "Point",
            "coordinates": [
                158.83,
                53.26
            ]
        },
        "type": "Feature",
        "properties": {
            "Country": "Kamchatka",
            "Altitude": 2741,
            "Type": "Stratovolcano",
            "Name": "Avachinsky"
        }
    },
    {
        "geometry": {
            "type": "Point",
            "coordinates": [
                125.5,
                3.67
            ]
        },
        "type": "Feature",
        "properties": {
            "Country": "Sangihe Is-Indonesia",
            "Altitude": 1320,
            "Type": "Stratovolcano",
            "Name": "Awu"
        }
    },
    {
        "geometry": {
            "type": "Point",
            "coordinates": [
                -130.0,
                45.95
            ]
        },
        "type": "Feature",
        "properties": {
            "Country": "Pacific-NE",
            "Altitude": -1410.0,
            "Type": "Submarine volcano",
            "Name": "Axial Seamount"
        }
    },
    {
        "geometry": {
            "type": "Point",
            "coordinates": [
                40.7,
                10.08
            ]
        },
        "type": "Feature",
        "properties": {
            "Country": "Ethiopia",
            "Altitude": 2145,
            "Type": "Stratovolcano",
            "Name": "Ayelu"
        }
    },
    {
        "geometry": {
            "type": "Point",
            "coordinates": [
                98.6,
                52.52
            ]
        },
        "type": "Feature",
        "properties": {
            "Country": "Russia-SE",
            "Altitude": 2765,
            "Type": "Volcanic field",
            "Name": "Azas Plateau"
        }
    },
    {
        "geometry": {
            "type": "Point",
            "coordinates": [
                -77.68,
                1.08
            ]
        },
        "type": "Feature",
        "properties": {
            "Country": "Colombia",
            "Altitude": 4070,
            "Type": "Stratovolcano",
            "Name": "Azufral"
        }
    },
    {
        "geometry": {
            "type": "Point",
            "coordinates": [
                -68.24,
                -21.79
            ]
        },
        "type": "Feature",
        "properties": {
            "Country": "Chile-N",
            "Altitude": 5846,
            "Type": "Stratovolcano",
            "Name": "Azufre: Cerro del"
        }
    },
    {
        "geometry": {
            "type": "Point",
            "coordinates": [
                -91.41,
                -0.92
            ]
        },
        "type": "Feature",
        "properties": {
            "Country": "Galapagos",
            "Altitude": 1640,
            "Type": "Shield volcano",
            "Name": "Azul: Cerro"
        }
    },
    {
        "geometry": {
            "type": "Point",
            "coordinates": [
                -70.76,
                -35.65
            ]
        },
        "type": "Feature",
        "properties": {
            "Country": "Chile-C",
            "Altitude": 3788,
            "Type": "Stratovolcano",
            "Name": "Azul: Cerro"
        }
    },
    {
        "geometry": {
            "type": "Point",
            "coordinates": [
                -83.87,
                12.53
            ]
        },
        "type": "Feature",
        "properties": {
            "Country": "Nicaragua",
            "Altitude": 201,
            "Type": "Cinder cones",
            "Name": "Azul: Volcan"
        }
    },
    {
        "geometry": {
            "type": "Point",
            "coordinates": [
                140.25,
                37.73
            ]
        },
        "type": "Feature",
        "properties": {
            "Country": "Honshu-Japan",
            "Altitude": 2035,
            "Type": "Stratovolcanoes",
            "Name": "Azuma"
        }
    },
    {
        "geometry": {
            "type": "Point",
            "coordinates": [
                121.94,
                19.52
            ]
        },
        "type": "Feature",
        "properties": {
            "Country": "Luzon-N of",
            "Altitude": 1080,
            "Type": "Stratovolcanoes",
            "Name": "Babuyan Claro"
        }
    },
    {
        "geometry": {
            "type": "Point",
            "coordinates": [
                -121.69,
                43.98
            ]
        },
        "type": "Feature",
        "properties": {
            "Country": "US-Oregon",
            "Altitude": 2763,
            "Type": "Stratovolcano",
            "Name": "Bachelor"
        }
    },
    {
        "geometry": {
            "type": "Point",
            "coordinates": [
                155.2,
                -6.14
            ]
        },
        "type": "Feature",
        "properties": {
            "Country": "Bougainville-SW Pacific",
            "Altitude": 1750,
            "Type": "Lava cone",
            "Name": "Bagana"
        }
    },
    {
        "geometry": {
            "type": "Point",
            "coordinates": [
                158.07,
                53.91
            ]
        },
        "type": "Feature",
        "properties": {
            "Country": "Kamchatka",
            "Altitude": 2278,
            "Type": "Stratovolcano",
            "Name": "Bakening"
        }
    },
    {
        "geometry": {
            "type": "Point",
            "coordinates": [
                -121.81,
                48.78
            ]
        },
        "type": "Feature",
        "properties": {
            "Country": "US-Washington",
            "Altitude": 3285,
            "Type": "Stratovolcanoes",
            "Name": "Baker"
        }
    },
    {
        "geometry": {
            "type": "Point",
            "coordinates": [
                48.33,
                14.05
            ]
        },
        "type": "Feature",
        "properties": {
            "Country": "Arabia-S",
            "Altitude": 233,
            "Type": "Volcanic field",
            "Name": "Bal Haf: Harra of"
        }
    },
    {
        "geometry": {
            "type": "Point",
            "coordinates": [
                124.98,
                8.77
            ]
        },
        "type": "Feature",
        "properties": {
            "Country": "Mindanao-Philippines",
            "Altitude": 2450,
            "Type": "Compound volcano",
            "Name": "Balatukan"
        }
    },
    {
        "geometry": {
            "type": "Point",
            "coordinates": [
                154.98,
                -5.92
            ]
        },
        "type": "Feature",
        "properties": {
            "Country": "Bougainville-SW Pacific",
            "Altitude": 2715,
            "Type": "Stratovolcano",
            "Name": "Balbi"
        }
    },
    {
        "geometry": {
            "type": "Point",
            "coordinates": [
                -112.41,
                37.33
            ]
        },
        "type": "Feature",
        "properties": {
            "Country": "US-Utah",
            "Altitude": 2135,
            "Type": "Cinder cones",
            "Name": "Bald Knoll"
        }
    },
    {
        "geometry": {
            "type": "Point",
            "coordinates": [
                147.28,
                -2.57
            ]
        },
        "type": "Feature",
        "properties": {
            "Country": "Admiralty Is-SW Pacific",
            "Altitude": 254,
            "Type": "Stratovolcano",
            "Name": "Baluan"
        }
    },
    {
        "geometry": {
            "type": "Point",
            "coordinates": [
                114.37,
                -7.85
            ]
        },
        "type": "Feature",
        "properties": {
            "Country": "Java",
            "Altitude": 1247,
            "Type": "Stratovolcano",
            "Name": "Baluran"
        }
    },
    {
        "geometry": {
            "type": "Point",
            "coordinates": [
                125.38,
                5.4
            ]
        },
        "type": "Feature",
        "properties": {
            "Country": "Mindanao-Philippines",
            "Altitude": 862,
            "Type": "Stratovolcano",
            "Name": "Balut"
        }
    },
    {
        "geometry": {
            "type": "Point",
            "coordinates": [
                144.82,
                -3.61
            ]
        },
        "type": "Feature",
        "properties": {
            "Country": "New Guinea-NE of",
            "Altitude": 685,
            "Type": "Stratovolcano",
            "Name": "Bam"
        }
    },
    {
        "geometry": {
            "type": "Point",
            "coordinates": [
                151.23,
                -5.2
            ]
        },
        "type": "Feature",
        "properties": {
            "Country": "New Britain-SW Pac",
            "Altitude": 2248,
            "Type": "Stratovolcano",
            "Name": "Bamus"
        }
    },
    {
        "geometry": {
            "type": "Point",
            "coordinates": [
                121.48,
                14.07
            ]
        },
        "type": "Feature",
        "properties": {
            "Country": "Luzon-Philippines",
            "Altitude": 2158,
            "Type": "Complex volcano",
            "Name": "Banahaw"
        }
    },
    {
        "geometry": {
            "type": "Point",
            "coordinates": [
                129.87,
                -4.53
            ]
        },
        "type": "Feature",
        "properties": {
            "Country": "Banda Sea",
            "Altitude": 640,
            "Type": "Caldera",
            "Name": "Banda Api"
        }
    },
    {
        "geometry": {
            "type": "Point",
            "coordinates": [
                140.08,
                37.6
            ]
        },
        "type": "Feature",
        "properties": {
            "Country": "Honshu-Japan",
            "Altitude": 1819,
            "Type": "Stratovolcano",
            "Name": "Bandai"
        }
    },
    {
        "geometry": {
            "type": "Point",
            "coordinates": [
                125.49,
                3.14
            ]
        },
        "type": "Feature",
        "properties": {
            "Country": "Sangihe Is-Indonesia",
            "Altitude": -5.0,
            "Type": "Submarine volcano",
            "Name": "Banua Wuhu"
        }
    },
    {
        "geometry": {
            "type": "Point",
            "coordinates": [
                148.02,
                45.1
            ]
        },
        "type": "Feature",
        "properties": {
            "Country": "Kuril Is",
            "Altitude": 1132,
            "Type": "Stratovolcano",
            "Name": "Baransky"
        }
    },
    {
        "geometry": {
            "type": "Point",
            "coordinates": [
                -110.82,
                19.3
            ]
        },
        "type": "Feature",
        "properties": {
            "Country": "Mexico-Is",
            "Altitude": 332,
            "Type": "Cinder cones",
            "Name": "Borcena"
        }
    },
    {
        "geometry": {
            "type": "Point",
            "coordinates": [
                -17.53,
                64.63
            ]
        },
        "type": "Feature",
        "properties": {
            "Country": "Iceland-NE",
            "Altitude": 2000,
            "Type": "Stratovolcano",
            "Name": "Bordarbunga"
        }
    },
    {
        "geometry": {
            "type": "Point",
            "coordinates": [
                158.27,
                52.82
            ]
        },
        "type": "Feature",
        "properties": {
            "Country": "Kamchatka",
            "Altitude": 870,
            "Type": "Lava domes",
            "Name": "Barkhatnaya Sopka"
        }
    },
    {
        "geometry": {
            "type": "Point",
            "coordinates": [
                93.86,
                12.28
            ]
        },
        "type": "Feature",
        "properties": {
            "Country": "Andaman Is-Indian O",
            "Altitude": 354,
            "Type": "Stratovolcano",
            "Name": "Barren Island"
        }
    },
    {
        "geometry": {
            "type": "Point",
            "coordinates": [
                36.57,
                2.32
            ]
        },
        "type": "Feature",
        "properties": {
            "Country": "Africa-E",
            "Altitude": 1032,
            "Type": "Shield volcano",
            "Name": "Barrier: The"
        }
    },
    {
        "geometry": {
            "type": "Point",
            "coordinates": [
                -82.54,
                8.81
            ]
        },
        "type": "Feature",
        "properties": {
            "Country": "Panama",
            "Altitude": 3474,
            "Type": "Stratovolcano",
            "Name": "Bar"
        }
    },
    {
        "geometry": {
            "type": "Point",
            "coordinates": [
                -84.1,
                10.14
            ]
        },
        "type": "Feature",
        "properties": {
            "Country": "Costa Rica",
            "Altitude": 2906,
            "Type": "Complex volcano",
            "Name": "Barva"
        }
    },
    {
        "geometry": {
            "type": "Point",
            "coordinates": [
                107.2,
                10.8
            ]
        },
        "type": "Feature",
        "properties": {
            "Country": "SE Asia",
            "Altitude": 392,
            "Type": "Volcanic field",
            "Name": "Bas Dong Nai"
        }
    },
    {
        "geometry": {
            "type": "Point",
            "coordinates": [
                115.38,
                -8.24
            ]
        },
        "type": "Feature",
        "properties": {
            "Country": "Lesser Sunda Is",
            "Altitude": 1717,
            "Type": "Caldera",
            "Name": "Batur"
        }
    },
    {
        "geometry": {
            "type": "Point",
            "coordinates": [
                -68.58,
                -25.42
            ]
        },
        "type": "Feature",
        "properties": {
            "Country": "Chile-N",
            "Altitude": 5401,
            "Type": "Complex volcano",
            "Name": "Bayo: Cerro"
        }
    },
    {
        "geometry": {
            "type": "Point",
            "coordinates": [
                139.92,
                31.88
            ]
        },
        "type": "Feature",
        "properties": {
            "Country": "Izu Is-Japan",
            "Altitude": 11,
            "Type": "Submarine volcano",
            "Name": "Bayonnaise Rocks"
        }
    },
    {
        "geometry": {
            "type": "Point",
            "coordinates": [
                32.75,
                18.33
            ]
        },
        "type": "Feature",
        "properties": {
            "Country": "Africa-N",
            "Altitude": 670,
            "Type": "Cinder cones",
            "Name": "Bayuda Volc Field"
        }
    },
    {
        "geometry": {
            "type": "Point",
            "coordinates": [
                60.0,
                28.07
            ]
        },
        "type": "Feature",
        "properties": {
            "Country": "Iran",
            "Altitude": 3490,
            "Type": "Stratovolcano",
            "Name": "Bazman"
        }
    },
    {
        "geometry": {
            "type": "Point",
            "coordinates": [
                -8.17,
                71.08
            ]
        },
        "type": "Feature",
        "properties": {
            "Country": "Atlantic-N-Jan Mayen",
            "Altitude": 2277,
            "Type": "Stratovolcano",
            "Name": "Beerenberg"
        }
    },
    {
        "geometry": {
            "type": "Point",
            "coordinates": [
                -131.05,
                55.32
            ]
        },
        "type": "Feature",
        "properties": {
            "Country": "Alaska-E",
            "Altitude": 500,
            "Type": "Cinder cones",
            "Name": "Behm Canal-Rudyerd Bay"
        }
    },
    {
        "geometry": {
            "type": "Point",
            "coordinates": [
                157.27,
                51.75
            ]
        },
        "type": "Feature",
        "properties": {
            "Country": "Kamchatka",
            "Altitude": 892,
            "Type": "Stratovolcano",
            "Name": "Belenkaya"
        }
    },
    {
        "geometry": {
            "type": "Point",
            "coordinates": [
                102.18,
                -2.82
            ]
        },
        "type": "Feature",
        "properties": {
            "Country": "Sumatra",
            "Altitude": 1958,
            "Type": "Compound volcano",
            "Name": "Belirang-Beriti"
        }
    },
    {
        "geometry": {
            "type": "Point",
            "coordinates": [
                -121.84,
                44.29
            ]
        },
        "type": "Feature",
        "properties": {
            "Country": "US-Oregon",
            "Altitude": 2095,
            "Type": "Shield volcanoes",
            "Name": "Belknap"
        }
    },
    {
        "geometry": {
            "type": "Point",
            "coordinates": [
                160.53,
                57.88
            ]
        },
        "type": "Feature",
        "properties": {
            "Country": "Kamchatka",
            "Altitude": 2080,
            "Type": "Shield volcanoes",
            "Name": "Bely"
        }
    },
    {
        "geometry": {
            "type": "Point",
            "coordinates": [
                -136.0,
                -76.05
            ]
        },
        "type": "Feature",
        "properties": {
            "Country": "Antarctica",
            "Altitude": 3478,
            "Type": "Shield volcanoes",
            "Name": "Berlin"
        }
    },
    {
        "geometry": {
            "type": "Point",
            "coordinates": [
                39.75,
                8.95
            ]
        },
        "type": "Feature",
        "properties": {
            "Country": "Ethiopia",
            "Altitude": 1100,
            "Type": "Volcanic field",
            "Name": "Beru"
        }
    },
    {
        "geometry": {
            "type": "Point",
            "coordinates": [
                146.94,
                44.46
            ]
        },
        "type": "Feature",
        "properties": {
            "Country": "Kuril Is",
            "Altitude": 1221,
            "Type": "Stratovolcano",
            "Name": "Berutarube"
        }
    },
    {
        "geometry": {
            "type": "Point",
            "coordinates": [
                103.67,
                -4.43
            ]
        },
        "type": "Feature",
        "properties": {
            "Country": "Sumatra",
            "Altitude": 1899,
            "Type": "Stratovolcano ?",
            "Name": "Besar"
        }
    },
    {
        "geometry": {
            "type": "Point",
            "coordinates": [
                160.59,
                55.98
            ]
        },
        "type": "Feature",
        "properties": {
            "Country": "Kamchatka",
            "Altitude": 2882,
            "Type": "Stratovolcano",
            "Name": "Bezymianny"
        }
    },
    {
        "geometry": {
            "type": "Point",
            "coordinates": [
                127.72,
                -0.77
            ]
        },
        "type": "Feature",
        "properties": {
            "Country": "Halmahera-Indonesia",
            "Altitude": 900,
            "Type": "Stratovolcanoes",
            "Name": "Bibinoi"
        }
    },
    {
        "geometry": {
            "type": "Point",
            "coordinates": [
                38.1,
                7.07
            ]
        },
        "type": "Feature",
        "properties": {
            "Country": "Ethiopia",
            "Altitude": 1700,
            "Type": "Maars",
            "Name": "Bilate River Field"
        }
    },
    {
        "geometry": {
            "type": "Point",
            "coordinates": [
                124.54,
                11.52
            ]
        },
        "type": "Feature",
        "properties": {
            "Country": "Philippines-C",
            "Altitude": 1301,
            "Type": "Compound volcano",
            "Name": "Biliran"
        }
    },
    {
        "geometry": {
            "type": "Point",
            "coordinates": [
                155.23,
                -6.09
            ]
        },
        "type": "Feature",
        "properties": {
            "Country": "Bougainville-SW Pacific",
            "Altitude": 1544,
            "Type": "Pyroclastic shield",
            "Name": "Billy Mitchell"
        }
    },
    {
        "geometry": {
            "type": "Point",
            "coordinates": [
                50.63,
                15.55
            ]
        },
        "type": "Feature",
        "properties": {
            "Country": "Arabia-S",
            "Altitude": "",
            "Type": "Volcanic field",
            "Name": "Bir Borhut"
        }
    },
    {
        "geometry": {
            "type": "Point",
            "coordinates": [
                41.63,
                18.37
            ]
        },
        "type": "Feature",
        "properties": {
            "Country": "Arabia-W",
            "Altitude": 381,
            "Type": "Volcanic field",
            "Name": "Birk: Harrat al"
        }
    },
    {
        "geometry": {
            "type": "Point",
            "coordinates": [
                38.98,
                8.78
            ]
        },
        "type": "Feature",
        "properties": {
            "Country": "Ethiopia",
            "Altitude": 1850,
            "Type": "Fissure vents",
            "Name": "Bishoftu Volc Field"
        }
    },
    {
        "geometry": {
            "type": "Point",
            "coordinates": [
                12.0,
                10.75
            ]
        },
        "type": "Feature",
        "properties": {
            "Country": "Africa-W",
            "Altitude": "",
            "Type": "Volcanic field",
            "Name": "Biu Plateau"
        }
    },
    {
        "geometry": {
            "type": "Point",
            "coordinates": [
                -158.79,
                56.55
            ]
        },
        "type": "Feature",
        "properties": {
            "Country": "Alaska Peninsula",
            "Altitude": 1032,
            "Type": "Stratovolcano",
            "Name": "Black Peak"
        }
    },
    {
        "geometry": {
            "type": "Point",
            "coordinates": [
                -112.5,
                38.97
            ]
        },
        "type": "Feature",
        "properties": {
            "Country": "US-Utah",
            "Altitude": 1800,
            "Type": "Volcanic field",
            "Name": "Black Rock Desert"
        }
    },
    {
        "geometry": {
            "type": "Point",
            "coordinates": [
                -71.01,
                -36.29
            ]
        },
        "type": "Feature",
        "properties": {
            "Country": "Chile-C",
            "Altitude": 2268,
            "Type": "Stratovolcano",
            "Name": "Blancas: Lomas"
        }
    },
    {
        "geometry": {
            "type": "Point",
            "coordinates": [
                159.78,
                56.97
            ]
        },
        "type": "Feature",
        "properties": {
            "Country": "Kamchatka",
            "Altitude": 1244,
            "Type": "Stratovolcano",
            "Name": "Bliznets"
        }
    },
    {
        "geometry": {
            "type": "Point",
            "coordinates": [
                161.37,
                57.35
            ]
        },
        "type": "Feature",
        "properties": {
            "Country": "Kamchatka",
            "Altitude": 265,
            "Type": "Lava cone",
            "Name": "Bliznetsy"
        }
    },
    {
        "geometry": {
            "type": "Point",
            "coordinates": [
                -121.77,
                44.41
            ]
        },
        "type": "Feature",
        "properties": {
            "Country": "US-Oregon",
            "Altitude": 1230,
            "Type": "Maar",
            "Name": "Blue Lake Crater"
        }
    },
    {
        "geometry": {
            "type": "Point",
            "coordinates": [
                144.61,
                -3.51
            ]
        },
        "type": "Feature",
        "properties": {
            "Country": "New Guinea-NE of",
            "Altitude": 402,
            "Type": "Stratovolcano",
            "Name": "Blup Blup"
        }
    },
    {
        "geometry": {
            "type": "Point",
            "coordinates": [
                -177.44,
                51.91
            ]
        },
        "type": "Feature",
        "properties": {
            "Country": "Aleutian Is",
            "Altitude": 738,
            "Type": "Stratovolcano",
            "Name": "Bobrof"
        }
    },
    {
        "geometry": {
            "type": "Point",
            "coordinates": [
                147.34,
                44.83
            ]
        },
        "type": "Feature",
        "properties": {
            "Country": "Kuril Is",
            "Altitude": 1634,
            "Type": "Stratovolcano",
            "Name": "Bogatyr Ridge"
        }
    },
    {
        "geometry": {
            "type": "Point",
            "coordinates": [
                -168.03,
                53.93
            ]
        },
        "type": "Feature",
        "properties": {
            "Country": "Aleutian Is",
            "Altitude": 150,
            "Type": "Submarine volcano",
            "Name": "Bogoslof"
        }
    },
    {
        "geometry": {
            "type": "Point",
            "coordinates": [
                144.96,
                -3.99
            ]
        },
        "type": "Feature",
        "properties": {
            "Country": "New Guinea-NE of",
            "Altitude": 240,
            "Type": "Stratovolcano",
            "Name": "Boisa"
        }
    },
    {
        "geometry": {
            "type": "Point",
            "coordinates": [
                150.03,
                -5.15
            ]
        },
        "type": "Feature",
        "properties": {
            "Country": "New Britain-SW Pac",
            "Altitude": 1155,
            "Type": "Stratovolcano",
            "Name": "Bola"
        }
    },
    {
        "geometry": {
            "type": "Point",
            "coordinates": [
                157.78,
                52.9
            ]
        },
        "type": "Feature",
        "properties": {
            "Country": "Kamchatka",
            "Altitude": 1200,
            "Type": "Lava domes",
            "Name": "Bolshe-Bannaya"
        }
    },
    {
        "geometry": {
            "type": "Point",
            "coordinates": [
                157.78,
                55.88
            ]
        },
        "type": "Feature",
        "properties": {
            "Country": "Kamchatka",
            "Altitude": 1906,
            "Type": "Shield volcanoes",
            "Name": "Bolshoi Payalpan"
        }
    },
    {
        "geometry": {
            "type": "Point",
            "coordinates": [
                160.02,
                54.32
            ]
        },
        "type": "Feature",
        "properties": {
            "Country": "Kamchatka",
            "Altitude": 1720,
            "Type": "Stratovolcanoes",
            "Name": "Bolshoi Semiachik"
        }
    },
    {
        "geometry": {
            "type": "Point",
            "coordinates": [
                157.8,
                56.47
            ]
        },
        "type": "Feature",
        "properties": {
            "Country": "Kamchatka",
            "Altitude": 1401,
            "Type": "Shield volcanoes",
            "Name": "Bolshoi-Kekuknaysky"
        }
    },
    {
        "geometry": {
            "type": "Point",
            "coordinates": [
                117.88,
                4.4
            ]
        },
        "type": "Feature",
        "properties": {
            "Country": "Borneo",
            "Altitude": 531,
            "Type": "Pyroclastic cone",
            "Name": "Bombalai"
        }
    },
    {
        "geometry": {
            "type": "Point",
            "coordinates": [
                77.83,
                -37.72
            ]
        },
        "type": "Feature",
        "properties": {
            "Country": "Indian O.-S",
            "Altitude": -650.0,
            "Type": "Submarine volcano",
            "Name": "Boomerang Seamount"
        }
    },
    {
        "geometry": {
            "type": "Point",
            "coordinates": [
                39.03,
                8.27
            ]
        },
        "type": "Feature",
        "properties": {
            "Country": "Ethiopia",
            "Altitude": 2285,
            "Type": "Pumice cones",
            "Name": "Bora-Bericcio"
        }
    },
    {
        "geometry": {
            "type": "Point",
            "coordinates": [
                40.6,
                13.73
            ]
        },
        "type": "Feature",
        "properties": {
            "Country": "Ethiopia",
            "Altitude": 668,
            "Type": "Stratovolcano",
            "Name": "Borale Ale"
        }
    },
    {
        "geometry": {
            "type": "Point",
            "coordinates": [
                40.98,
                13.3
            ]
        },
        "type": "Feature",
        "properties": {
            "Country": "Ethiopia",
            "Altitude": 812,
            "Type": "Stratovolcano",
            "Name": "Borawli"
        }
    },
    {
        "geometry": {
            "type": "Point",
            "coordinates": [
                41.45,
                11.63
            ]
        },
        "type": "Feature",
        "properties": {
            "Country": "Ethiopia",
            "Altitude": 875,
            "Type": "Lava domes",
            "Name": "Borawli"
        }
    },
    {
        "geometry": {
            "type": "Point",
            "coordinates": [
                39.48,
                8.56
            ]
        },
        "type": "Feature",
        "properties": {
            "Country": "Ethiopia",
            "Altitude": 2447,
            "Type": "Stratovolcanoes",
            "Name": "Boset-Bericha"
        }
    },
    {
        "geometry": {
            "type": "Point",
            "coordinates": [
                3.35,
                -54.42
            ]
        },
        "type": "Feature",
        "properties": {
            "Country": "Atlantic-S",
            "Altitude": 780,
            "Type": "Shield volcano",
            "Name": "Bouvet"
        }
    },
    {
        "geometry": {
            "type": "Point",
            "coordinates": [
                115.13,
                -8.28
            ]
        },
        "type": "Feature",
        "properties": {
            "Country": "Lesser Sunda Is",
            "Altitude": 2276,
            "Type": "Caldera",
            "Name": "Bratan"
        }
    },
    {
        "geometry": {
            "type": "Point",
            "coordinates": [
                -24.72,
                14.85
            ]
        },
        "type": "Feature",
        "properties": {
            "Country": "Cape Verde Is",
            "Altitude": 900,
            "Type": "Stratovolcano",
            "Name": "Brava"
        }
    },
    {
        "geometry": {
            "type": "Point",
            "coordinates": [
                -75.3,
                5.09
            ]
        },
        "type": "Feature",
        "properties": {
            "Country": "Colombia",
            "Altitude": 4000,
            "Type": "Stratovolcano",
            "Name": "Bravo: Cerro"
        }
    },
    {
        "geometry": {
            "type": "Point",
            "coordinates": [
                -21.83,
                63.92
            ]
        },
        "type": "Feature",
        "properties": {
            "Country": "Iceland-SW",
            "Altitude": 626,
            "Type": "Crater rows",
            "Name": "Brennisteinsfjoll"
        }
    },
    {
        "geometry": {
            "type": "Point",
            "coordinates": [
                -123.4,
                50.8
            ]
        },
        "type": "Feature",
        "properties": {
            "Country": "Canada",
            "Altitude": 2500,
            "Type": "Volcanic field",
            "Name": "Bridge River Cones"
        }
    },
    {
        "geometry": {
            "type": "Point",
            "coordinates": [
                -56.75,
                -62.05
            ]
        },
        "type": "Feature",
        "properties": {
            "Country": "Antarctica",
            "Altitude": 240,
            "Type": "Stratovolcano",
            "Name": "Bridgeman Island"
        }
    },
    {
        "geometry": {
            "type": "Point",
            "coordinates": [
                -26.58,
                -59.03
            ]
        },
        "type": "Feature",
        "properties": {
            "Country": "Antarctica",
            "Altitude": 1100,
            "Type": "Stratovolcano",
            "Name": "Bristol Island"
        }
    },
    {
        "geometry": {
            "type": "Point",
            "coordinates": [
                179.08,
                -34.88
            ]
        },
        "type": "Feature",
        "properties": {
            "Country": "New Zealand",
            "Altitude": -1350.0,
            "Type": "Submarine volcano",
            "Name": "Brothers"
        }
    },
    {
        "geometry": {
            "type": "Point",
            "coordinates": [
                -121.44,
                41.18
            ]
        },
        "type": "Feature",
        "properties": {
            "Country": "US-California",
            "Altitude": 1174,
            "Type": "Shield volcano",
            "Name": "Brushy Butte"
        }
    },
    {
        "geometry": {
            "type": "Point",
            "coordinates": [
                163.25,
                -66.78
            ]
        },
        "type": "Feature",
        "properties": {
            "Country": "Antarctica",
            "Altitude": 1239,
            "Type": "Stratovolcano",
            "Name": "Buckle Island"
        }
    },
    {
        "geometry": {
            "type": "Point",
            "coordinates": [
                29.72,
                -1.23
            ]
        },
        "type": "Feature",
        "properties": {
            "Country": "Africa-C",
            "Altitude": 2440,
            "Type": "Cinder cones",
            "Name": "Bufumbira"
        }
    },
    {
        "geometry": {
            "type": "Point",
            "coordinates": [
                175.91,
                52.35
            ]
        },
        "type": "Feature",
        "properties": {
            "Country": "Aleutian Is",
            "Altitude": 656,
            "Type": "Stratovolcano",
            "Name": "Buldir"
        }
    },
    {
        "geometry": {
            "type": "Point",
            "coordinates": [
                124.05,
                12.77
            ]
        },
        "type": "Feature",
        "properties": {
            "Country": "Luzon-Philippines",
            "Altitude": 1565,
            "Type": "Stratovolcanoes",
            "Name": "Bulusan"
        }
    },
    {
        "geometry": {
            "type": "Point",
            "coordinates": [
                30.08,
                -0.2
            ]
        },
        "type": "Feature",
        "properties": {
            "Country": "Africa-C",
            "Altitude": 1554,
            "Type": "Maars",
            "Name": "Bunyaruguru Field"
        }
    },
    {
        "geometry": {
            "type": "Point",
            "coordinates": [
                -73.4,
                -52.33
            ]
        },
        "type": "Feature",
        "properties": {
            "Country": "Chile-S",
            "Altitude": 1758,
            "Type": "Stratovolcano",
            "Name": "Burney: Monte"
        }
    },
    {
        "geometry": {
            "type": "Point",
            "coordinates": [
                109.08,
                47.12
            ]
        },
        "type": "Feature",
        "properties": {
            "Country": "Mongolia",
            "Altitude": 1162,
            "Type": "Cinder cone",
            "Name": "Bus-Obo"
        }
    },
    {
        "geometry": {
            "type": "Point",
            "coordinates": [
                38.35,
                8.05
            ]
        },
        "type": "Feature",
        "properties": {
            "Country": "Ethiopia",
            "Altitude": 2281,
            "Type": "Fissure vents",
            "Name": "Butajiri-Silti Field"
        }
    },
    {
        "geometry": {
            "type": "Point",
            "coordinates": [
                -148.42,
                64.07
            ]
        },
        "type": "Feature",
        "properties": {
            "Country": "Alaska-E",
            "Altitude": 830,
            "Type": "Tuff rings",
            "Name": "Buzzard Creek"
        }
    },
    {
        "geometry": {
            "type": "Point",
            "coordinates": [
                125.22,
                10.29
            ]
        },
        "type": "Feature",
        "properties": {
            "Country": "Philippines-C",
            "Altitude": 945,
            "Type": "Stratovolcano",
            "Name": "Cabal"
        }
    },
    {
        "geometry": {
            "type": "Point",
            "coordinates": [
                -71.7,
                -39.25
            ]
        },
        "type": "Feature",
        "properties": {
            "Country": "Chile-C",
            "Altitude": 1496,
            "Type": "Cinder cones",
            "Name": "Caburgua-Huelemolle"
        }
    },
    {
        "geometry": {
            "type": "Point",
            "coordinates": [
                122.12,
                18.22
            ]
        },
        "type": "Feature",
        "properties": {
            "Country": "Luzon-Philippines",
            "Altitude": 1133,
            "Type": "Stratovolcano",
            "Name": "Cagua"
        }
    },
    {
        "geometry": {
            "type": "Point",
            "coordinates": [
                -67.73,
                -23.95
            ]
        },
        "type": "Feature",
        "properties": {
            "Country": "Chile-N",
            "Altitude": 4450,
            "Type": "Stratovolcanoes",
            "Name": "Caichinque"
        }
    },
    {
        "geometry": {
            "type": "Point",
            "coordinates": [
                -70.5,
                -35.56
            ]
        },
        "type": "Feature",
        "properties": {
            "Country": "Chile-C",
            "Altitude": 3508,
            "Type": "Caldera",
            "Name": "Calabozos"
        }
    },
    {
        "geometry": {
            "type": "Point",
            "coordinates": [
                -4.02,
                38.87
            ]
        },
        "type": "Feature",
        "properties": {
            "Country": "Spain",
            "Altitude": 1117,
            "Type": "Pyroclastic cones",
            "Name": "Calatrava Volc Field"
        }
    },
    {
        "geometry": {
            "type": "Point",
            "coordinates": [
                -72.61,
                -41.33
            ]
        },
        "type": "Feature",
        "properties": {
            "Country": "Chile-S",
            "Altitude": 2003,
            "Type": "Stratovolcano",
            "Name": "Calbuco"
        }
    },
    {
        "geometry": {
            "type": "Point",
            "coordinates": [
                -71.45,
                -37.92
            ]
        },
        "type": "Feature",
        "properties": {
            "Country": "Chile-C",
            "Altitude": 3164,
            "Type": "Stratovolcano",
            "Name": "Callaqui"
        }
    },
    {
        "geometry": {
            "type": "Point",
            "coordinates": [
                9.17,
                4.2
            ]
        },
        "type": "Feature",
        "properties": {
            "Country": "Africa-W",
            "Altitude": 4095,
            "Type": "Stratovolcano",
            "Name": "Cameroon"
        }
    },
    {
        "geometry": {
            "type": "Point",
            "coordinates": [
                124.67,
                9.2
            ]
        },
        "type": "Feature",
        "properties": {
            "Country": "Mindanao-Philippines",
            "Altitude": 1552,
            "Type": "Stratovolcanoes",
            "Name": "Camiguin"
        }
    },
    {
        "geometry": {
            "type": "Point",
            "coordinates": [
                121.86,
                18.83
            ]
        },
        "type": "Feature",
        "properties": {
            "Country": "Luzon-N of",
            "Altitude": 712,
            "Type": "Stratovolcano",
            "Name": "Camiguin de Babuyanes"
        }
    },
    {
        "geometry": {
            "type": "Point",
            "coordinates": [
                14.14,
                40.83
            ]
        },
        "type": "Feature",
        "properties": {
            "Country": "Italy",
            "Altitude": 458,
            "Type": "Caldera",
            "Name": "Campi Flegrei"
        }
    },
    {
        "geometry": {
            "type": "Point",
            "coordinates": [
                12.7,
                37.1
            ]
        },
        "type": "Feature",
        "properties": {
            "Country": "Italy",
            "Altitude": -8.0,
            "Type": "Submarine volcanoes",
            "Name": "Campi Flegrei Mar Sicilia"
        }
    },
    {
        "geometry": {
            "type": "Point",
            "coordinates": [
                -26.67,
                -57.08
            ]
        },
        "type": "Feature",
        "properties": {
            "Country": "Antarctica",
            "Altitude": 550,
            "Type": "Stratovolcano",
            "Name": "Candlemas Island"
        }
    },
    {
        "geometry": {
            "type": "Point",
            "coordinates": [
                123.13,
                10.41
            ]
        },
        "type": "Feature",
        "properties": {
            "Country": "Philippines-C",
            "Altitude": 2435,
            "Type": "Stratovolcano",
            "Name": "Canlaon"
        }
    },
    {
        "geometry": {
            "type": "Point",
            "coordinates": [
                -104.1,
                36.4
            ]
        },
        "type": "Feature",
        "properties": {
            "Country": "US-New Mexico",
            "Altitude": 2494,
            "Type": "Cinder cones",
            "Name": "Capulin Mountain"
        }
    },
    {
        "geometry": {
            "type": "Point",
            "coordinates": [
                -170.05,
                52.89
            ]
        },
        "type": "Feature",
        "properties": {
            "Country": "Aleutian Is",
            "Altitude": 1620,
            "Type": "Stratovolcano",
            "Name": "Carlisle"
        }
    },
    {
        "geometry": {
            "type": "Point",
            "coordinates": [
                -72.07,
                -40.35
            ]
        },
        "type": "Feature",
        "properties": {
            "Country": "Chile-C",
            "Altitude": 1114,
            "Type": "Pyroclastic cones",
            "Name": "Carran-Los Venados"
        }
    },
    {
        "geometry": {
            "type": "Point",
            "coordinates": [
                -105.93,
                33.78
            ]
        },
        "type": "Feature",
        "properties": {
            "Country": "US-New Mexico",
            "Altitude": 1731,
            "Type": "Cinder cones",
            "Name": "Carrizozo"
        }
    },
    {
        "geometry": {
            "type": "Point",
            "coordinates": [
                -69.81,
                -17.47
            ]
        },
        "type": "Feature",
        "properties": {
            "Country": "Peru",
            "Altitude": 5650,
            "Type": "Stratovolcanoes",
            "Name": "Casiri: Nevados"
        }
    },
    {
        "geometry": {
            "type": "Point",
            "coordinates": [
                -72.98,
                -45.06
            ]
        },
        "type": "Feature",
        "properties": {
            "Country": "Chile-S",
            "Altitude": 2090,
            "Type": "Stratovolcano",
            "Name": "Cay"
        }
    },
    {
        "geometry": {
            "type": "Point",
            "coordinates": [
                -77.99,
                0.03
            ]
        },
        "type": "Feature",
        "properties": {
            "Country": "Ecuador",
            "Altitude": 5790,
            "Type": "Compound volcano",
            "Name": "Cayambe"
        }
    },
    {
        "geometry": {
            "type": "Point",
            "coordinates": [
                -72.27,
                -41.25
            ]
        },
        "type": "Feature",
        "properties": {
            "Country": "Chile-S",
            "Altitude": 506,
            "Type": "Pyroclastic cones",
            "Name": "Cayutu -La Viguer a"
        }
    },
    {
        "geometry": {
            "type": "Point",
            "coordinates": [
                -104.51,
                21.13
            ]
        },
        "type": "Feature",
        "properties": {
            "Country": "Mexico",
            "Altitude": 2280,
            "Type": "Stratovolcano",
            "Name": "Ceboruco"
        }
    },
    {
        "geometry": {
            "type": "Point",
            "coordinates": [
                109.01,
                10.16
            ]
        },
        "type": "Feature",
        "properties": {
            "Country": "SE Asia",
            "Altitude": -20.0,
            "Type": "Submarine volcanoes",
            "Name": "Cendres: Ile des"
        }
    },
    {
        "geometry": {
            "type": "Point",
            "coordinates": [
                36.04,
                3.5
            ]
        },
        "type": "Feature",
        "properties": {
            "Country": "Africa-E",
            "Altitude": 550,
            "Type": "Tuff cones",
            "Name": "Central Island"
        }
    },
    {
        "geometry": {
            "type": "Point",
            "coordinates": [
                108.4,
                -6.89
            ]
        },
        "type": "Feature",
        "properties": {
            "Country": "Java",
            "Altitude": 3078,
            "Type": "Stratovolcano",
            "Name": "Cereme"
        }
    },
    {
        "geometry": {
            "type": "Point",
            "coordinates": [
                -78.25,
                -0.38
            ]
        },
        "type": "Feature",
        "properties": {
            "Country": "Ecuador",
            "Altitude": 4643,
            "Type": "Caldera",
            "Name": "Chacana"
        }
    },
    {
        "geometry": {
            "type": "Point",
            "coordinates": [
                -71.53,
                -16.19
            ]
        },
        "type": "Feature",
        "properties": {
            "Country": "Peru",
            "Altitude": 6057,
            "Type": "Stratovolcano",
            "Name": "Chachani: Nevado"
        }
    },
    {
        "geometry": {
            "type": "Point",
            "coordinates": [
                -171.13,
                52.58
            ]
        },
        "type": "Feature",
        "properties": {
            "Country": "Aleutian Is",
            "Altitude": 1142,
            "Type": "Stratovolcano",
            "Name": "Chagulak"
        }
    },
    {
        "geometry": {
            "type": "Point",
            "coordinates": [
                2.97,
                45.78
            ]
        },
        "type": "Feature",
        "properties": {
            "Country": "France",
            "Altitude": 1464,
            "Type": "Cinder cones",
            "Name": "Cha ne des Puys"
        }
    },
    {
        "geometry": {
            "type": "Point",
            "coordinates": [
                -72.65,
                -42.83
            ]
        },
        "type": "Feature",
        "properties": {
            "Country": "Chile-S",
            "Altitude": 1122,
            "Type": "Caldera",
            "Name": "Chait n"
        }
    },
    {
        "geometry": {
            "type": "Point",
            "coordinates": [
                128.08,
                41.98
            ]
        },
        "type": "Feature",
        "properties": {
            "Country": "China-E",
            "Altitude": 2744,
            "Type": "Stratovolcano",
            "Name": "Changbaishan"
        }
    },
    {
        "geometry": {
            "type": "Point",
            "coordinates": [
                159.67,
                56.82
            ]
        },
        "type": "Feature",
        "properties": {
            "Country": "Kamchatka",
            "Altitude": 1778,
            "Type": "Stratovolcano",
            "Name": "Cherny"
        }
    },
    {
        "geometry": {
            "type": "Point",
            "coordinates": [
                157.47,
                55.55
            ]
        },
        "type": "Feature",
        "properties": {
            "Country": "Kamchatka",
            "Altitude": 1868,
            "Type": "Pyroclastic cones",
            "Name": "Cherpuk Group"
        }
    },
    {
        "geometry": {
            "type": "Point",
            "coordinates": [
                -99.13,
                19.08
            ]
        },
        "type": "Feature",
        "properties": {
            "Country": "Mexico",
            "Altitude": 3930,
            "Type": "Volcanic field",
            "Name": "Chichinautzin"
        }
    },
    {
        "geometry": {
            "type": "Point",
            "coordinates": [
                -93.23,
                17.36
            ]
        },
        "type": "Feature",
        "properties": {
            "Country": "Mexico",
            "Altitude": 1150,
            "Type": "Lava domes",
            "Name": "Chich n: El"
        }
    },
    {
        "geometry": {
            "type": "Point",
            "coordinates": [
                -156.99,
                57.14
            ]
        },
        "type": "Feature",
        "properties": {
            "Country": "Alaska Peninsula",
            "Altitude": 2221,
            "Type": "Stratovolcano",
            "Name": "Chiginagak"
        }
    },
    {
        "geometry": {
            "type": "Point",
            "coordinates": [
                155.46,
                50.33
            ]
        },
        "type": "Feature",
        "properties": {
            "Country": "Kuril Is",
            "Altitude": 1816,
            "Type": "Stratovolcanoes",
            "Name": "Chikurachki"
        }
    },
    {
        "geometry": {
            "type": "Point",
            "coordinates": [
                -67.7,
                -23.58
            ]
        },
        "type": "Feature",
        "properties": {
            "Country": "Chile-N",
            "Altitude": 5778,
            "Type": "Stratovolcano",
            "Name": "Chiliques"
        }
    },
    {
        "geometry": {
            "type": "Point",
            "coordinates": [
                -71.38,
                -36.86
            ]
        },
        "type": "Feature",
        "properties": {
            "Country": "Chile-C",
            "Altitude": 3212,
            "Type": "Stratovolcano",
            "Name": "Chill n: Nevados de"
        }
    },
    {
        "geometry": {
            "type": "Point",
            "coordinates": [
                -78.82,
                -1.46
            ]
        },
        "type": "Feature",
        "properties": {
            "Country": "Ecuador",
            "Altitude": 6310,
            "Type": "Stratovolcano",
            "Name": "Chimborazo"
        }
    },
    {
        "geometry": {
            "type": "Point",
            "coordinates": [
                -88.33,
                13.48
            ]
        },
        "type": "Feature",
        "properties": {
            "Country": "El Salvador",
            "Altitude": 1300,
            "Type": "Stratovolcano",
            "Name": "Chinameca"
        }
    },
    {
        "geometry": {
            "type": "Point",
            "coordinates": [
                -89.73,
                14.12
            ]
        },
        "type": "Feature",
        "properties": {
            "Country": "Guatemala",
            "Altitude": 1775,
            "Type": "Stratovolcano",
            "Name": "Chingo"
        }
    },
    {
        "geometry": {
            "type": "Point",
            "coordinates": [
                -89.55,
                14.83
            ]
        },
        "type": "Feature",
        "properties": {
            "Country": "Guatemala",
            "Altitude": 1192,
            "Type": "Cinder cones",
            "Name": "Chiquimula Volc Field"
        }
    },
    {
        "geometry": {
            "type": "Point",
            "coordinates": [
                38.12,
                6.65
            ]
        },
        "type": "Feature",
        "properties": {
            "Country": "Ethiopia",
            "Altitude": 1650,
            "Type": "Stratovolcano",
            "Name": "Chiracha"
        }
    },
    {
        "geometry": {
            "type": "Point",
            "coordinates": [
                153.48,
                48.98
            ]
        },
        "type": "Feature",
        "properties": {
            "Country": "Kuril Is",
            "Altitude": 724,
            "Type": "Stratovolcano",
            "Name": "Chirinkotan"
        }
    },
    {
        "geometry": {
            "type": "Point",
            "coordinates": [
                147.93,
                45.34
            ]
        },
        "type": "Feature",
        "properties": {
            "Country": "Kuril Is",
            "Altitude": 1587,
            "Type": "Stratovolcanoes",
            "Name": "Chirip"
        }
    },
    {
        "geometry": {
            "type": "Point",
            "coordinates": [
                150.88,
                46.53
            ]
        },
        "type": "Feature",
        "properties": {
            "Country": "Kuril Is",
            "Altitude": 742,
            "Type": "Caldera",
            "Name": "Chirpoi"
        }
    },
    {
        "geometry": {
            "type": "Point",
            "coordinates": [
                140.05,
                39.1
            ]
        },
        "type": "Feature",
        "properties": {
            "Country": "Honshu-Japan",
            "Altitude": 2233,
            "Type": "Stratovolcanoes",
            "Name": "Chokai"
        }
    },
    {
        "geometry": {
            "type": "Point",
            "coordinates": [
                127.33,
                38.33
            ]
        },
        "type": "Feature",
        "properties": {
            "Country": "Korea",
            "Altitude": 452,
            "Type": "Shield volcano",
            "Name": "Ch'uga-ryong"
        }
    },
    {
        "geometry": {
            "type": "Point",
            "coordinates": [
                -141.75,
                61.38
            ]
        },
        "type": "Feature",
        "properties": {
            "Country": "Alaska-E",
            "Altitude": 5005,
            "Type": "Stratovolcano",
            "Name": "Churchill"
        }
    },
    {
        "geometry": {
            "type": "Point",
            "coordinates": [
                37.88,
                -2.68
            ]
        },
        "type": "Feature",
        "properties": {
            "Country": "Africa-E",
            "Altitude": 2188,
            "Type": "Volcanic field",
            "Name": "Chyulu Hills"
        }
    },
    {
        "geometry": {
            "type": "Point",
            "coordinates": [
                -86.14,
                12.53
            ]
        },
        "type": "Feature",
        "properties": {
            "Country": "Nicaragua",
            "Altitude": 603,
            "Type": "Stratovolcano",
            "Name": "Ciguatepe: Cerro el"
        }
    },
    {
        "geometry": {
            "type": "Point",
            "coordinates": [
                -122.11,
                43.24
            ]
        },
        "type": "Feature",
        "properties": {
            "Country": "US-Oregon",
            "Altitude": 1956,
            "Type": "Cinder cones",
            "Name": "Cinnamon Butte"
        }
    },
    {
        "geometry": {
            "type": "Point",
            "coordinates": [
                -89.25,
                14.02
            ]
        },
        "type": "Feature",
        "properties": {
            "Country": "El Salvador",
            "Altitude": 665,
            "Type": "Volcanic field",
            "Name": "Cinotepeque: Cerro"
        }
    },
    {
        "geometry": {
            "type": "Point",
            "coordinates": [
                177.84,
                -36.45
            ]
        },
        "type": "Feature",
        "properties": {
            "Country": "New Zealand",
            "Altitude": -860.0,
            "Type": "Submarine volcano",
            "Name": "Clark"
        }
    },
    {
        "geometry": {
            "type": "Point",
            "coordinates": [
                -122.77,
                38.97
            ]
        },
        "type": "Feature",
        "properties": {
            "Country": "US-California",
            "Altitude": 1439,
            "Type": "Volcanic field",
            "Name": "Clear Lake"
        }
    },
    {
        "geometry": {
            "type": "Point",
            "coordinates": [
                -130.3,
                44.83
            ]
        },
        "type": "Feature",
        "properties": {
            "Country": "Pacific-NE",
            "Altitude": -2140.0,
            "Type": "Submarine volcano",
            "Name": "Cleft Segment"
        }
    },
    {
        "geometry": {
            "type": "Point",
            "coordinates": [
                -169.94,
                52.83
            ]
        },
        "type": "Feature",
        "properties": {
            "Country": "Aleutian Is",
            "Altitude": 1730,
            "Type": "Stratovolcano",
            "Name": "Cleveland"
        }
    },
    {
        "geometry": {
            "type": "Point",
            "coordinates": [
                -89.55,
                13.87
            ]
        },
        "type": "Feature",
        "properties": {
            "Country": "El Salvador",
            "Altitude": 746,
            "Type": "Caldera",
            "Name": "Coatepeque Caldera"
        }
    },
    {
        "geometry": {
            "type": "Point",
            "coordinates": [
                -129.58,
                46.52
            ]
        },
        "type": "Feature",
        "properties": {
            "Country": "Pacific-NE",
            "Altitude": -2400.0,
            "Type": "Submarine volcano",
            "Name": "CoAxial Segment"
        }
    },
    {
        "geometry": {
            "type": "Point",
            "coordinates": [
                -129.33,
                46.88
            ]
        },
        "type": "Feature",
        "properties": {
            "Country": "Pacific-NE",
            "Altitude": -2100.0,
            "Type": "Submarine volcano",
            "Name": "Cobb Segment"
        }
    },
    {
        "geometry": {
            "type": "Point",
            "coordinates": [
                -69.82,
                -36.77
            ]
        },
        "type": "Feature",
        "properties": {
            "Country": "Argentina",
            "Altitude": 1435,
            "Type": "Stratovolcanoes",
            "Name": "Cochiquito Volc Group"
        }
    },
    {
        "geometry": {
            "type": "Point",
            "coordinates": [
                50.23,
                -46.1
            ]
        },
        "type": "Feature",
        "properties": {
            "Country": "Indian O.-S",
            "Altitude": 775,
            "Type": "Stratovolcano",
            "Name": "Cochons: Ile aux"
        }
    },
    {
        "geometry": {
            "type": "Point",
            "coordinates": [
                -97.15,
                19.49
            ]
        },
        "type": "Feature",
        "properties": {
            "Country": "Mexico",
            "Altitude": 4282,
            "Type": "Shield volcanoes",
            "Name": "Cofre de Perote"
        }
    },
    {
        "geometry": {
            "type": "Point",
            "coordinates": [
                -67.65,
                -23.24
            ]
        },
        "type": "Feature",
        "properties": {
            "Country": "Chile-N",
            "Altitude": 5631,
            "Type": "Stratovolcano",
            "Name": "Colachi"
        }
    },
    {
        "geometry": {
            "type": "Point",
            "coordinates": [
                157.17,
                -8.83
            ]
        },
        "type": "Feature",
        "properties": {
            "Country": "Solomon Is-SW Pacific",
            "Altitude": "",
            "Type": "Submarine volcano",
            "Name": "Coleman Seamount"
        }
    },
    {
        "geometry": {
            "type": "Point",
            "coordinates": [
                -103.62,
                19.51
            ]
        },
        "type": "Feature",
        "properties": {
            "Country": "Mexico",
            "Altitude": 3850,
            "Type": "Stratovolcanoes",
            "Name": "Colima"
        }
    },
    {
        "geometry": {
            "type": "Point",
            "coordinates": [
                121.61,
                -0.17
            ]
        },
        "type": "Feature",
        "properties": {
            "Country": "Sulawesi-Indonesia",
            "Altitude": 507,
            "Type": "Stratovolcano",
            "Name": "Colo [Una Una]"
        }
    },
    {
        "geometry": {
            "type": "Point",
            "coordinates": [
                -111.92,
                26.0
            ]
        },
        "type": "Feature",
        "properties": {
            "Country": "Mexico",
            "Altitude": 780,
            "Type": "Volcanic field",
            "Name": "Comond -La Pur sima"
        }
    },
    {
        "geometry": {
            "type": "Point",
            "coordinates": [
                -85.62,
                11.54
            ]
        },
        "type": "Feature",
        "properties": {
            "Country": "Nicaragua",
            "Altitude": 1700,
            "Type": "Stratovolcano",
            "Name": "Concepci n"
        }
    },
    {
        "geometry": {
            "type": "Point",
            "coordinates": [
                -87.85,
                13.28
            ]
        },
        "type": "Feature",
        "properties": {
            "Country": "El Salvador",
            "Altitude": 1225,
            "Type": "Stratovolcano",
            "Name": "Conchagua"
        }
    },
    {
        "geometry": {
            "type": "Point",
            "coordinates": [
                -87.77,
                13.23
            ]
        },
        "type": "Feature",
        "properties": {
            "Country": "El Salvador",
            "Altitude": 505,
            "Type": "Stratovolcano",
            "Name": "Conchag ita"
        }
    },
    {
        "geometry": {
            "type": "Point",
            "coordinates": [
                -68.35,
                -26.62
            ]
        },
        "type": "Feature",
        "properties": {
            "Country": "Argentina",
            "Altitude": 6532,
            "Type": "Stratovolcano",
            "Name": "C ndor: Cerro el"
        }
    },
    {
        "geometry": {
            "type": "Point",
            "coordinates": [
                -71.17,
                -37.85
            ]
        },
        "type": "Feature",
        "properties": {
            "Country": "Chile-C",
            "Altitude": 2997,
            "Type": "Stratovolcano",
            "Name": "Copahue"
        }
    },
    {
        "geometry": {
            "type": "Point",
            "coordinates": [
                -69.13,
                -27.3
            ]
        },